[
  {
    "id": 1,
    "List": "List_1",
    "name": "Leanne Graham",
    "address": {
      "street": "Kulas Light",
      "suite": "Apt. 556",
      "city": "Gwenborough",
      "zipcode": "92998-3874",
      "geo": {
        "lat": "-37.3159",
        "lng": "81.1496"
      }
    },
    "status": "No calls", "phone": "1-770-736-8031",
    "company": "Romaguera-Crona"
  },
  {
    "id": 2,
    "name": "Ervin Howell",
    "List": "List_1",
    "address": {
      "street": "Victor Plains",
      "suite": "Suite 879",
      "city": "Wisokyburgh",
      "zipcode": "90566-7771",
      "geo": {
        "lat": "-43.9509",
        "lng": "-34.4618"
      }
    },
    "status": "No calls", "phone": "010-692-6593 x09125",
    "company": "Deckow-Crist"
  },
  {
    "id": 3,
    "name": "Clementine Bauch",
    "List": "List_1",
    "address": {
      "street": "Douglas Extension",
      "suite": "Suite 847",
      "city": "McKenziehaven",
      "zipcode": "59590-4157",
      "geo": {
        "lat": "-68.6102",
        "lng": "-47.0653"
      }
    },
    "status": "No calls", "status": "No calls", "phone": "1-463-123-4447",
    "company": "Romaguera-Jacobson"
  },
  {
    "id": 4,
    "name": "Patricia Lebsack",
    "List": "List_1",
    "address": {
      "street": "Hoeger Mall",
      "suite": "Apt. 692",
      "city": "South Elvis",
      "zipcode": "53919-4257",
      "geo": {
        "lat": "29.4572",
        "lng": "-164.2990"
      }
    },
    "status": "No calls",
    "phone": "493-170-9623 x156",
    "company": "Robel-Corkery"
  },
  {
    "id": 5,
    "name": "Chelsey Dietrich",
    "List": "List_1",
    "address": {
      "street": "Skiles Walks",
      "suite": "Suite 351",
      "city": "Roscoeview",
      "zipcode": "33263",
      "geo": {
        "lat": "-31.8129",
        "lng": "62.5342"
      }
    },
    "status": "No calls", "phone": "(254)954-1289",
    "company": "Keebler LLC"
  },
  {
    "id": 6,
    "name": "Mrs. Dennis Schulist",
    "List": "List_1",
    "address": {
      "street": "Norberto Crossing",
      "suite": "Apt. 950",
      "city": "South Christy",
      "zipcode": "23505-1337",
      "geo": {
        "lat": "-71.4197",
        "lng": "71.7478"
      }
    },
    "status": "No calls", "phone": "1-477-935-8478 x6430",
    "company": "Considine-Lockman"

  },
  {
    "id": 7,
    "name": "Kurtis Weissnat",
    "List": "List_1",
    "address": {
      "street": "Rex Trail",
      "suite": "Suite 280",
      "city": "Howemouth",
      "zipcode": "58804-1099",
      "geo": {
        "lat": "24.8918",
        "lng": "21.8984"
      }
    },
    "status": "No calls", "phone": "210.067.6132",
    "company": "Johns Group"
  },
  {
    "id": 8,
    "name": "Nicholas Runolfsdottir V",
    "List": "List_1",
    "address": {
      "street": "Ellsworth Summit",
      "suite": "Suite 729",
      "city": "Aliyaview",
      "zipcode": "45169",
      "geo": {
        "lat": "-14.3990",
        "lng": "-120.7677"
      }
    },
    "status": "No calls", "phone": "586.493.6943 x140",
    "company": "Abernathy Group"
  },
  {
    "id": 9,
    "name": "Glenna Reichert",
    "List": "List_1",
    "address": {
      "street": "Dayna Park",
      "suite": "Suite 449",
      "city": "Bartholomebury",
      "zipcode": "76495-3109",
      "geo": {
        "lat": "24.6463",
        "lng": "-168.8889"
      }
    },
    "status": "No calls", "phone": "(775)976-6794",
    "company":"Yost and Sons"
  },
  {
    "id": 10,
    "name": "Clementina DuBuque",
    "List": "List_1",
    "address": {
      "street": "Kattie Turnpike",
      "suite": "Suite 198",
      "city": "Lebsackbury",
      "zipcode": "31428-2261",
      "geo": {
        "lat": "-38.2386",
        "lng": "57.2232"
      }
    },
    "status": "No calls", "phone": "024-648-3804",
    "company": "Hoeger LLC"
  }
]
